{"Carpentras": {"size": 35, "country": "France", "full_desc": ["also", "flying", "club", "14th", "century", "oldest", "synagogue", "france", "chapel", "took", "name", "lady", "health", "following", "1629", "plague", "located", "next", "saint", "siffrein", "cathedral", "building", "dates", "1640", "built", "request", "bishop", "aleandre", "bichi", "built", "15th", "century", "two", "storeys", "arches", "italian", "loggias", "example", "14th", "century", "military", "architecture", "twenty", "seven", "metres", "high", "construction", "began", "1720", "lasted", "14", "years", "old", "seed", "factory", "remains", "rare", "example", "seed", "industry", "five", "institutions", "france", "one", "oldest", "monuments", "carpentras", "visits", "possible", "reservation", "tourism", "office", "former", "hospital", "location", "truffle", "markets", "winter", "public", "library", "one", "largest", "oldest", "1754", "france", "independent", "cinema", "auditorium", "welcoming", "numerous", "tours", "artists", "fun", "activity", "kids", "water", "stage", "sports", "complex", "carpentras", "several", "annual", "horse", "racing", "also", "circuit", "karts", "carpentras", "staple", "provencal", "market", "friday", "morning", "installed", "several", "streets", "historic", "center", "winter", "season", "truffle", "market", "also", "organized", "free", "parking", "set", "near", "municipal", "swimming", "pool", "shuttle", "also", "free", "connects", "city", "center", "7", "30", "14", "30", "direct", "sale", "producer", "consumer", "agricultural", "market", "producers", "region", "fruits", "vegetables", "honey", "plants", "wines", "etc", "dates", "mid", "nineteenth", "century", "also", "known", "glass", "street", "walkway", "includes", "luxury", "clothing", "boutiques", "specialities", "berlingot", "french", "candy", "candied", "fruits", "cheap", "cafeteria", "chain", "asian", "restaurant", "also", "restaurant", "new", "place", "open", "since", "2002", "contact", "17", "112", "cellular", "phone"], "attractions": {"Carpentras synagogue": {"type": "see", "description": ["14th", "century", "oldest", "synagogue", "france"], "coordinates": [44.05514286, 5.048519971], "website": "nan", "place_id": null, "reviews": null, "purpose": ["educational"], "cost": ""}, "Notre-Dame de Sant\u00e9 chapel": {"type": "see", "description": ["chapel", "took", "name", "lady", "health", "following", "1629", "plague"], "coordinates": [44.05855016, 5.0491243610000005], "website": "nan", "place_id": null, "reviews": null, "purpose": [], "cost": ""}, "former Archbishopric": {"type": "see", "description": ["located", "next", "saint", "siffrein", "cathedral", "building", "dates", "1640", "built", "request", "bishop", "aleandre", "bichi"], "coordinates": [44.05453899, 5.047348738], "website": "nan", "place_id": null, "reviews": null, "purpose": ["educational"], "cost": ""}, "Carpentras Cathedral": {"type": "see", "description": ["built", "15th", "century"], "coordinates": [44.0541667, 5.047222222], "website": "nan", "place_id": null, "reviews": null, "purpose": ["educational"], "cost": ""}, "La Charit\u00e9": {"type": "see", "description": ["two", "storeys", "arches", "italian", "loggias"], "coordinates": [44.05419202, 5.0502991680000004], "website": "nan", "place_id": null, "reviews": null, "purpose": [], "cost": ""}, "Porte d'Orange": {"type": "see", "description": ["example", "14th", "century", "military", "architecture", "twenty", "seven", "metres", "high"], "coordinates": [44.05659768, 5.047246814], "website": "nan", "place_id": null, "reviews": null, "purpose": ["educational"], "cost": ""}, "aqueduct carries the canal Carpentras": {"type": "see", "description": ["construction", "began", "1720", "lasted", "14", "years"], "coordinates": [44.06150124, 5.058302879], "website": "nan", "place_id": null, "reviews": null, "purpose": [], "cost": ""}, "Graineterie Roux": {"type": "see", "description": ["old", "seed", "factory", "remains", "rare", "example", "seed", "industry", "five", "institutions", "france"], "coordinates": [44.05044453, 5.042939186], "website": "nan", "place_id": null, "reviews": null, "purpose": ["educational"], "cost": ""}, "Ancient Roman arch": {"type": "see", "description": ["one", "oldest", "monuments", "carpentras"], "coordinates": [44.05455556, 5.047194444], "website": "nan", "place_id": null, "reviews": null, "purpose": ["educational"], "cost": ""}, "College chapel": {"type": "see", "description": ["nan"], "coordinates": [44.05366667, 5.046527778], "website": "nan", "place_id": null, "reviews": null, "purpose": [], "cost": ""}, "The Israelite cemetery": {"type": "see", "description": ["visits", "possible", "reservation", "tourism", "office"], "coordinates": [44.061779, 5.0581309999999995], "website": "nan", "place_id": null, "reviews": null, "purpose": [], "cost": ""}, "Saint-Martin de Serres chapel": {"type": "see", "description": ["nan"], "coordinates": [44.082035999999995, 5.068474], "website": "nan", "place_id": null, "reviews": null, "purpose": [], "cost": ""}, "H\u00f4tel-Dieu": {"type": "see", "description": ["former", "hospital", "location", "truffle", "markets", "winter"], "coordinates": [44.05069129, 5.048196316], "website": "nan", "place_id": "ChIJFV7s31Dq9EcRgjUAEMB_Nw8", "reviews": {"html_attributions": [], "result": {"rating": 4.3, "reviews": [{"author_name": "Garth Drury", "author_url": "https://www.google.com/maps/contrib/117492515120562657304/reviews", "language": "en", "profile_photo_url": "https://lh4.googleusercontent.com/-REpeHiuKK9A/AAAAAAAAAAI/AAAAAAAAJCI/ONxtBi9lC3U/s128-c0x00000000-cc-rp-mo-ba4/photo.jpg", "rating": 4, "relative_time_description": "4 months ago", "text": "4* going on 5* when fully occupied. A magnificent landmark hospice/hospital in Lyon, now remodelled for the 21st C.", "time": 1544418680}, {"author_name": "P B", "author_url": "https://www.google.com/maps/contrib/112235521478541652304/reviews", "language": "en", "profile_photo_url": "https://lh3.googleusercontent.com/-bEZu9BgUWf0/AAAAAAAAAAI/AAAAAAAAL3I/WDXyhHkJTwI/s128-c0x00000000-cc-rp-mo-ba7/photo.jpg", "rating": 4, "relative_time_description": "11 months ago", "text": "I am conflicted with this historic site. On one hand, it is an excellent restoration of a historical building. On the other, a very modern aesthetic. As you walk through the old halls, it takes you back and you imagine the old hospital as you read the names of the people that graced the building over the years. Then, you make a turn and come across Beefhouse, Buddha Bar and other modern and trendy spots that, in my opinion, take away from the charm of the place. I would have liked to see the same aesthetic throughout instead of modernizing it in the manner they chose.", "time": 1526216993}, {"author_name": "Salamandre Khalid", "author_url": "https://www.google.com/maps/contrib/106051474067242796855/reviews", "language": "en", "profile_photo_url": "https://lh6.googleusercontent.com/-10OgG6wcW7Y/AAAAAAAAAAI/AAAAAAAAAAA/ACHi3rcus5ZWhO4hgwEsRZI0FkBb8aCtyg/s128-c0x00000000-cc-rp-mo-ba4/photo.jpg", "rating": 3, "relative_time_description": "in the last week", "text": "Opened even it's not finished, there are a lot of work to do there", "time": 1555254803}, {"author_name": "Marc CHARPIN", "author_url": "https://www.google.com/maps/contrib/117467712176564938839/reviews", "language": "en", "profile_photo_url": "https://lh4.googleusercontent.com/-eAM-Hy5oSQA/AAAAAAAAAAI/AAAAAAAAWpE/ldA72oo0PBg/s128-c0x00000000-cc-rp-mo-ba5/photo.jpg", "rating": 4, "relative_time_description": "3 months ago", "text": "A wide variety of stores and restaurants. A bit upscalled, nonetheless a nice venue for an afternoon of shopping...", "time": 1545192736}, {"author_name": "Ezechiel Totouom", "author_url": "https://www.google.com/maps/contrib/110901811021376984967/reviews", "language": "en", "profile_photo_url": "https://lh6.googleusercontent.com/-n4jy3dHBDAQ/AAAAAAAAAAI/AAAAAAAAAmQ/q0_4Z0cjB4Q/s128-c0x00000000-cc-rp-mo-ba2/photo.jpg", "rating": 5, "relative_time_description": "11 months ago", "text": "One of the most beautifully renovated buildings in France. Breathtaking.", "time": 1525036384}]}, "status": "OK"}, "purpose": [], "cost": ""}, "Inguimbertine library": {"type": "see", "description": ["public", "library", "one", "largest", "oldest", "1754", "france"], "coordinates": [44.0544696, 5.044988394], "website": "nan", "place_id": null, "reviews": null, "purpose": ["educational"], "cost": ""}, "the rivoli cinema": {"type": "do", "description": ["independent", "cinema"], "coordinates": [44.05064207, 5.04749661], "website": "http://www.cine-vaucluse.com/", "place_id": null, "reviews": null, "purpose": ["friends"], "cost": ""}, "Espace Auzon": {"type": "do", "description": ["auditorium", "welcoming", "numerous", "tours", "artists"], "coordinates": [44.05644803, 5.042910266], "website": "http://84.agendaculturel.fr/espace-auzon", "place_id": null, "reviews": null, "purpose": ["educational"], "cost": ""}, "Les Diablotins": {"type": "do", "description": ["fun", "activity", "kids"], "coordinates": [44.04782766, 5.036640894], "website": "http://www.lesdiablotins-carpentras.fr/", "place_id": null, "reviews": null, "purpose": ["family"], "cost": ""}, "indoor public swimming pool": {"type": "do", "description": ["nan"], "coordinates": [44.056163299999994, 5.0499056], "website": "http://www.carpentras.fr/sport/equipements-sportifs/piscine-couverte-1397.html", "place_id": null, "reviews": null, "purpose": [], "cost": ""}, "Public swimming pool": {"type": "do", "description": ["water", "stage", "sports", "complex", "carpentras"], "coordinates": [44.04358996, 5.056824168], "website": "http://www.carpentras.fr/sport/equipements-sportifs/piscine-couverte-1397.htm {{dead link|April 2016}}", "place_id": null, "reviews": null, "purpose": [], "cost": ""}, "Hippodrome of Saint-Ponchon": {"type": "do", "description": ["several", "annual", "horse", "racing", "also", "circuit", "karts"], "coordinates": [44.03788213, 5.064881989], "website": "nan", "place_id": null, "reviews": null, "purpose": [], "cost": ""}, "Weekly Proven\u00e7al market": {"type": "buy", "description": ["carpentras", "staple", "provencal", "market", "friday", "morning", "installed", "several", "streets", "historic", "center", "winter", "season", "truffle", "market", "also", "organized", "free", "parking", "set", "near", "municipal", "swimming", "pool", "shuttle", "also", "free", "connects", "city", "center", "7", "30", "14", "30"], "coordinates": [44.05583333, 5.048888889], "website": "http://www.carpentras.fr/economie/les-marches-de-carpentras/marche-du-vendredi-469.html", "place_id": "ChIJibrxVWt_yhIRJ9FiR7g5N80", "reviews": null, "purpose": ["educational"], "cost": "low"}, "truffle market": {"type": "buy", "description": ["direct", "sale", "producer", "consumer"], "coordinates": [44.051482, 5.048153], "website": "http://www.carpentras.fr/economie/les-marches-de-carpentras/marche-aux-truffes-471.html {{dead link|April 2016}}", "place_id": null, "reviews": null, "purpose": [], "cost": ""}, "Farmers Market": {"type": "buy", "description": ["agricultural", "market", "producers", "region", "fruits", "vegetables", "honey", "plants", "wines", "etc"], "coordinates": [44.0525, 5.0472], "website": "nan", "place_id": "ChIJ8yU62_ewt4kR5pEbJ4Vy8Ds", "reviews": null, "purpose": [], "cost": ""}, "Passage Boyer": {"type": "buy", "description": ["dates", "mid", "nineteenth", "century", "also", "known", "glass", "street", "walkway", "includes", "luxury", "clothing", "boutiques"], "coordinates": [44.05524836, 5.0481534], "website": "nan", "place_id": null, "reviews": null, "purpose": ["educational"], "cost": ""}, "Clavel": {"type": "buy", "description": ["specialities", "berlingot", "french", "candy", "candied", "fruits"], "coordinates": [44.05201758, 5.047209263], "website": "http://www.clavel-confiserie.com/", "place_id": null, "reviews": null, "purpose": [], "cost": ""}, "Flunch": {"type": "eat", "description": ["cheap", "cafeteria", "chain"], "coordinates": [44.05187878, 5.040686131], "website": "nan", "place_id": "ChIJ51Osfxtu5kcRvXOBdxqSvck", "reviews": null, "purpose": [], "cost": "low"}, "March\u00e9 Gare restaurant": {"type": "eat", "description": ["nan"], "coordinates": [44.03381704, 5.040707588], "website": "nan", "place_id": null, "reviews": null, "purpose": [], "cost": ""}, "Restaurant de l'Univers": {"type": "eat", "description": ["nan"], "coordinates": [44.05200987, 5.047252178], "website": "nan", "place_id": null, "reviews": null, "purpose": [], "cost": ""}, "La Perle d'Asie": {"type": "eat", "description": ["asian", "restaurant"], "coordinates": [44.05250336, 5.047863722], "website": "nan", "place_id": null, "reviews": null, "purpose": ["friends"], "cost": ""}, "Chez Serge": {"type": "eat", "description": ["nan"], "coordinates": [44.0540692, 5.0503526], "website": "nan", "place_id": null, "reviews": null, "purpose": [], "cost": ""}, "Camping Lou Comtadou": {"type": "sleep", "description": ["nan"], "coordinates": [44.04415998, 5.053943242], "website": "http://www.campingloucomtadou.com/", "place_id": null, "reviews": null, "purpose": [], "cost": ""}, "Best Western - Le Comtadin": {"type": "sleep", "description": ["nan"], "coordinates": [44.05359595, 5.045287402], "website": "http://www.le-comtadin.com/", "place_id": null, "reviews": null, "purpose": [], "cost": ""}, "Le Safari": {"type": "sleep", "description": ["nan"], "coordinates": [44.0474521, 5.031219200000001], "website": "http://www.safarihotel.fr/", "place_id": "ChIJS_cK1bzazRIRY1nGXiAhy9M", "reviews": null, "purpose": [], "cost": ""}, "Le Malaga": {"type": "sleep", "description": ["nan"], "coordinates": [44.055362, 5.0493263], "website": "http://www.hotel-malaga-carpentras.fr/", "place_id": null, "reviews": null, "purpose": [], "cost": ""}, "Le Coq Hardi": {"type": "sleep", "description": ["also", "restaurant"], "coordinates": [44.0543996, 5.0442818], "website": "nan", "place_id": null, "reviews": null, "purpose": ["friends"], "cost": ""}}}}