{"Durr\u00ebs": {"size": 43, "country": NaN, "full_desc": ["currently", "link", "tirana", "without", "train", "station", "time", "international", "links", "daily", "trains", "kashdar", "suburb", "tirana", "several", "services", "elbasan", "twice", "librazhd", "shkoder", "vlora", "adventurous", "albanian", "railway", "system", "timetable", "posted", "outside", "train", "station", "built", "1907", "built", "19th", "century", "2001", "built", "built", "1503", "built", "1937", "showcases", "best", "work", "local", "painters", "biggest", "balkans", "also", "features", "renovated", "iconography", "works", "medieval", "hammam", "tophane", "well", "located", "inside", "around", "wall", "circular", "tower", "city", "center", "built", "16th", "century", "18", "october", "1801", "byzantine", "emperor", "alexios", "komnenos", "confronted", "norman", "adventurer", "robert", "guiscard", "basilica", "built", "6th", "century", "ad", "beautiful", "mosaic", "found", "built", "5th", "century", "ad", "public", "baths", "around", "beneath", "alexander", "moissi", "palace", "culture", "arguably", "used", "luxurious", "crib", "albania", "looted", "1997", "uprising", "open", "visitors", "reportedly", "prince", "leka", "plans", "renovate", "villa", "near", "future", "reported", "quite", "time", "endure", "steep", "climb", "hill", "one", "spectacular", "views", "city", "historic", "landmark", "golem", "caravans", "used", "pass", "along", "ancient", "via", "egnatia", "battle", "pompey", "julius", "caesar", "said", "taken", "place", "nbsp", "small", "city", "home", "skanderbeg", "tomb", "panoramic", "lezhe", "castle", "several", "renovated", "churches", "visit", "ishem", "castle", "rrushkull", "nature", "reserve", "rezervati", "rrushkull", "nbsp", "port", "town", "northwest", "lezhe", "lots", "hotels", "known", "rana", "e", "hedhun", "beach", "featuring", "sand", "dune", "coast", "events", "go", "evening", "walk", "along", "sea", "front", "promenade", "along", "beach", "see", "families", "walking", "around", "even", "men", "bears", "leash", "snakes", "entwined", "around", "necks", "panoramic", "view", "durres", "seaside", "currilat", "top", "newly", "reclaimed", "hill", "sit", "admire", "sea", "close", "large", "steps", "descending", "water", "popular", "weekend", "retreat", "exclusive", "wealthy", "beach", "area", "small", "resort", "found", "nice", "beach", "bar", "wooden", "bungalows", "north", "currilat", "main", "seaside", "resort", "south", "durres", "long", "sandy", "beaches", "popular", "among", "albanians", "foreigners", "alike", "tirana", "inhabitants", "beach", "houses", "villas", "area", "weekend", "summer", "retreats", "take", "dip", "adriatic", "sea", "water", "biggest", "sea", "side", "resort", "golem", "offers", "panoramic", "view", "durres", "offers", "nice", "view", "durres", "coastline", "easy", "find", "three", "star", "hotel", "main", "street", "close", "action", "quiet", "breakfast", "included", "capital", "trees", "mountains", "surround", "city", "mt", "dajt", "popular", "tourist", "site", "great", "view", "city", "coastal", "town", "near", "ada", "bojana", "south", "shkoder", "known", "curative", "beach", "sand", "beach", "long", "wide", "lot", "hotels", "offer", "nice", "rooms", "however", "beaches", "crowded", "august", "prefer", "quieter", "beaches", "go", "southern", "albania"], "attractions": {"Shen Lucia Catholic Church": {"type": "see", "description": ["built", "1907"], "coordinates": [NaN, NaN], "website": "nan", "place_id": null, "reviews": null}, "Shen Gjergji Orthodox Church": {"type": "see", "description": ["built", "19th", "century"], "coordinates": [NaN, NaN], "website": "nan", "place_id": null, "reviews": null}, "Saint Asti and Saint Paul Orthodox Church": {"type": "see", "description": ["2001", "built"], "coordinates": [41.3107, 19.4488], "website": "nan", "place_id": null, "reviews": null}, "Fatih Mosque": {"type": "see", "description": ["built", "1503"], "coordinates": [41.3111, 19.4458], "website": "nan", "place_id": null, "reviews": null}, "Great Mosque of Durres": {"type": "see", "description": ["nan"], "coordinates": [41.3132, 19.4455], "website": "nan", "place_id": null, "reviews": null}, "New Mosque": {"type": "see", "description": ["built", "1937"], "coordinates": [NaN, NaN], "website": "nan", "place_id": "ChIJ9VsYxsA2dkAR1nLxzrqqjoE", "reviews": null}, "Vogel Mosque": {"type": "see", "description": ["nan"], "coordinates": [41.3114, 19.4457], "website": "nan", "place_id": null, "reviews": null}, "Archaeological Museum": {"type": "see", "description": ["nan"], "coordinates": [41.3115, 19.4403], "website": "nan", "place_id": "ChIJm73HMJrKmjkRVYMoJXl2O5M", "reviews": {"html_attributions": [], "result": {"rating": 5, "reviews": [{"author_name": "Alok Maurya", "author_url": "https://www.google.com/maps/contrib/109790571209951428319/reviews", "language": "en", "profile_photo_url": "https://lh5.googleusercontent.com/-GHEB01rJDRg/AAAAAAAAAAI/AAAAAAAAAfQ/rCfJaNKdJNI/s128-c0x00000000-cc-rp-mo-ba3/photo.jpg", "rating": 5, "relative_time_description": "a year ago", "text": "I am studying here nd learning........", "time": 1500642186}, {"author_name": "Bhanu Singh", "author_url": "https://www.google.com/maps/contrib/111805719227282606939/reviews", "profile_photo_url": "https://lh3.googleusercontent.com/-PI5ETQO11-U/AAAAAAAAAAI/AAAAAAAAABI/aidWA24LxuU/s128-c0x00000000-cc-rp-mo/photo.jpg", "rating": 5, "relative_time_description": "5 months ago", "text": "", "time": 1542202619}]}, "status": "OK"}}, "Popular Culture Museum": {"type": "see", "description": ["nan"], "coordinates": [41.18, 19.5549], "website": "nan", "place_id": null, "reviews": null}, "Alexander Moissi Museum House": {"type": "see", "description": ["nan"], "coordinates": [41.3107, 19.445999999999998], "website": "nan", "place_id": null, "reviews": null}, "World War II Relics Hall": {"type": "see", "description": ["nan"], "coordinates": [NaN, NaN], "website": "nan", "place_id": null, "reviews": null}, "Koloseo Art Gallery": {"type": "see", "description": ["showcases", "best", "work", "local", "painters"], "coordinates": [NaN, NaN], "website": "nan", "place_id": null, "reviews": null}, "Durres Amphitheater": {"type": "see", "description": ["biggest", "balkans", "also", "features", "renovated", "iconography", "works"], "coordinates": [41.3122, 19.445], "website": "nan", "place_id": null, "reviews": null}, "Durres Ancient City Wall": {"type": "see", "description": ["medieval", "hammam", "tophane", "well", "located", "inside", "around", "wall"], "coordinates": [41.3126, 19.4441], "website": "nan", "place_id": null, "reviews": null}, "Venetian Tower": {"type": "see", "description": ["circular", "tower", "city", "center", "built", "16th", "century"], "coordinates": [41.3097, 19.4469], "website": "nan", "place_id": null, "reviews": null}, "Shen Mehilli Hill": {"type": "see", "description": ["18", "october", "1801", "byzantine", "emperor", "alexios", "komnenos", "confronted", "norman", "adventurer", "robert", "guiscard", "basilica", "built", "6th", "century", "ad", "beautiful", "mosaic", "found"], "coordinates": [NaN, NaN], "website": "nan", "place_id": null, "reviews": null}, "Byzantine Forum": {"type": "see", "description": ["built", "5th", "century", "ad", "public", "baths", "around", "beneath", "alexander", "moissi", "palace", "culture"], "coordinates": [NaN, NaN], "website": "nan", "place_id": null, "reviews": null}, "Municipality": {"type": "see", "description": ["nan"], "coordinates": [41.3127, 19.4463], "website": "http://www.durres.gov.al/", "place_id": null, "reviews": null}, "King Zog's Villa": {"type": "see", "description": ["arguably", "used", "luxurious", "crib", "albania", "looted", "1997", "uprising", "open", "visitors", "reportedly", "prince", "leka", "plans", "renovate", "villa", "near", "future", "reported", "quite", "time", "endure", "steep", "climb", "hill", "one", "spectacular", "views", "city"], "coordinates": [41.3144, 19.4389], "website": "nan", "place_id": null, "reviews": null}, "Kavaja Rock": {"type": "see", "description": ["historic", "landmark", "golem", "caravans", "used", "pass", "along", "ancient", "via", "egnatia", "battle", "pompey", "julius", "caesar", "said", "taken", "place"], "coordinates": [41.2779, 19.5192], "website": "nan", "place_id": null, "reviews": null}, "Lezhe": {"type": "see", "description": ["nbsp", "small", "city", "home", "skanderbeg", "tomb", "panoramic", "lezhe", "castle", "several", "renovated", "churches"], "coordinates": [41.7833, 19.6333], "website": "nan", "place_id": null, "reviews": null}, "Lalzit Bay Area": {"type": "see", "description": ["visit", "ishem", "castle", "rrushkull", "nature", "reserve", "rezervati", "rrushkull"], "coordinates": [41.4525, 19.4876], "website": "http://www.lalzitbay.com/", "place_id": null, "reviews": null}, "Rodoni Castle": {"type": "see", "description": ["nan"], "coordinates": [41.585982, 19.447504000000002], "website": "nan", "place_id": null, "reviews": null}, "Scanderbeg Castle": {"type": "do", "description": ["nan"], "coordinates": [41.628339000000004, 19.726932], "website": "nan", "place_id": null, "reviews": null}, "Shen Ndout Church": {"type": "see", "description": ["nan"], "coordinates": [41.62898, 19.733148999999997], "website": "nan", "place_id": null, "reviews": null}, "Shengjin": {"type": "see", "description": ["nbsp", "port", "town", "northwest", "lezhe", "lots", "hotels", "known", "rana", "e", "hedhun", "beach", "featuring", "sand", "dune", "coast"], "coordinates": [41.813611, 19.593889], "website": "nan", "place_id": null, "reviews": null}, "Culture Palace": {"type": "do", "description": ["events"], "coordinates": [41.3144, 19.4465], "website": "nan", "place_id": null, "reviews": null}, "Evening walk": {"type": "do", "description": ["go", "evening", "walk", "along", "sea", "front", "promenade", "along", "beach", "see", "families", "walking", "around", "even", "men", "bears", "leash", "snakes", "entwined", "around", "necks"], "coordinates": [NaN, NaN], "website": "nan", "place_id": null, "reviews": null}, "Villa Hill": {"type": "do", "description": ["panoramic", "view", "durres", "seaside", "currilat", "top", "newly", "reclaimed", "hill"], "coordinates": [41.318185, 19.433438], "website": "nan", "place_id": null, "reviews": null}, "Seaside Large Steps": {"type": "do", "description": ["sit", "admire", "sea", "close", "large", "steps", "descending", "water"], "coordinates": [41.310852000000004, 19.435305], "website": "nan", "place_id": null, "reviews": null}, "Lalzit Bay Beach": {"type": "do", "description": ["popular", "weekend", "retreat", "exclusive", "wealthy", "beach", "area", "small", "resort", "found"], "coordinates": [41.3968, 19.4214], "website": "nan", "place_id": "ChIJ3e7ntAMxUBMRz5YlH9SXs2c", "reviews": null}, "Portez Beach": {"type": "do", "description": ["nice", "beach", "bar", "wooden", "bungalows", "north", "currilat"], "coordinates": [41.4001, 19.404], "website": "nan", "place_id": null, "reviews": null}, "Golem beach": {"type": "do", "description": ["main", "seaside", "resort", "south", "durres", "long", "sandy", "beaches", "popular", "among", "albanians", "foreigners", "alike", "tirana", "inhabitants", "beach", "houses", "villas", "area", "weekend", "summer", "retreats"], "coordinates": [41.2509, 19.5194], "website": "nan", "place_id": null, "reviews": null}, "Sea Resort of Golem": {"type": "do", "description": ["take", "dip", "adriatic", "sea", "water", "biggest", "sea", "side", "resort", "golem"], "coordinates": [41.266001, 19.519762], "website": "http://www.xixaresort.com/", "place_id": null, "reviews": null}, "Bar Restorant Kajser": {"type": "drink", "description": ["offers", "panoramic", "view", "durres"], "coordinates": [NaN, NaN], "website": "nan", "place_id": null, "reviews": null}, "Restaurant Piazza": {"type": "eat", "description": ["nan"], "coordinates": [41.308890000000005, 19.4464], "website": "http://www.restorantpiazza.com", "place_id": null, "reviews": null}, "Venetian Tower (Rotonda) bar": {"type": "drink", "description": ["offers", "nice", "view", "durres", "coastline"], "coordinates": [NaN, NaN], "website": "nan", "place_id": null, "reviews": null}, "Hotel Lido Durres": {"type": "sleep", "description": ["nan"], "coordinates": [NaN, NaN], "website": "http://www.hotellido-durres.com/ {{dead link|May 2016}}", "place_id": null, "reviews": null}, "Hotel Nais": {"type": "sleep", "description": ["easy", "find", "three", "star", "hotel", "main", "street", "close", "action", "quiet", "breakfast", "included"], "coordinates": [41.3107, 19.4466], "website": "http://www.hotelsnais.al/", "place_id": null, "reviews": null}, "Hotel Arvi": {"type": "sleep", "description": ["nan"], "coordinates": [41.3105, 19.4433], "website": "http://hotelarvi.com", "place_id": null, "reviews": null}, "Hotel Aragosta": {"type": "sleep", "description": ["nan"], "coordinates": [41.3121, 19.4345], "website": "http://www.aragosta.al/", "place_id": null, "reviews": null}, "Hotel Adriatik": {"type": "sleep", "description": ["nan"], "coordinates": [41.3053, 19.4917], "website": "http://www.adriatikhotel.com/", "place_id": null, "reviews": null}, "Hotel Pepeto": {"type": "sleep", "description": ["nan"], "coordinates": [41.3136, 19.4473], "website": "http://hotelpepeto.webs.com/", "place_id": null, "reviews": null}}}}