{
  "Ringsted": {
    "size": 63,
    "country": "Denmark",
    "full_desc": [
      "church",
      "built",
      "12th",
      "century",
      "contains",
      "tomb",
      "among",
      "others",
      "queen",
      "dagmar",
      "oldest",
      "secular",
      "building",
      "town",
      "built",
      "1806",
      "originally",
      "merchant",
      "house",
      "1826",
      "started",
      "used",
      "mail",
      "house",
      "serving",
      "people",
      "traveling",
      "day",
      "coach",
      "later",
      "hotel",
      "restaurant",
      "builiding",
      "houses",
      "administration",
      "bank",
      "small",
      "cinema",
      "fast",
      "food",
      "restaurant",
      "serving",
      "deep",
      "pan",
      "pizzas",
      "well",
      "italian",
      "mexican",
      "dishes",
      "mexican",
      "restaurant",
      "italian",
      "restaurant",
      "also",
      "serving",
      "pastas",
      "meat",
      "dishes",
      "pizzas",
      "made",
      "stone",
      "oven",
      "interior",
      "stylish",
      "distinguish",
      "place",
      "ordinary",
      "pizzeria",
      "old",
      "inn",
      "serving",
      "typical",
      "danish",
      "cuisine",
      "large",
      "portions",
      "sophisticated",
      "friendly",
      "service",
      "bit",
      "slow",
      "old",
      "inn",
      "dating",
      "back",
      "around",
      "1700",
      "even",
      "though",
      "present",
      "buildings",
      "somewhat",
      "newer",
      "serves",
      "traditional",
      "danish",
      "cuisine",
      "restaurant",
      "specialising",
      "steaks",
      "lot",
      "different",
      "dishes",
      "choose",
      "restaurants",
      "brands",
      "fusion",
      "crossover",
      "difficult",
      "see",
      "steaks",
      "great",
      "wine",
      "list",
      "limited",
      "possible",
      "wine",
      "matches",
      "steaks",
      "great",
      "italian",
      "restaurant",
      "simple",
      "classy",
      "interior",
      "pastas",
      "good",
      "go",
      "looking",
      "steak",
      "wine",
      "list",
      "long",
      "italian",
      "lacking",
      "really",
      "top",
      "end",
      "wines",
      "danish",
      "french",
      "cuisine",
      "many",
      "ecological",
      "ingredients",
      "decent",
      "wine",
      "list",
      "rustic",
      "interior",
      "nice",
      "patio",
      "typical",
      "chinese",
      "restaurant",
      "actually",
      "cheap",
      "restaurant",
      "serving",
      "danish",
      "cuisine",
      "historical",
      "building",
      "close",
      "skjoldensholm",
      "japanese",
      "restaurant",
      "serving",
      "sushi",
      "typical",
      "japanese",
      "dishes",
      "restaurant",
      "historical",
      "building",
      "serving",
      "classical",
      "danish",
      "cuisine",
      "especially",
      "open",
      "sandwiches",
      "lunch",
      "great",
      "bar",
      "dance",
      "weekends",
      "live",
      "music",
      "pub",
      "live",
      "music",
      "cafe",
      "serving",
      "drinks",
      "light",
      "meals",
      "cafe",
      "serving",
      "drinks",
      "light",
      "meals",
      "outdoor",
      "seating",
      "weather",
      "permits",
      "cafe",
      "serving",
      "drinks",
      "light",
      "meals",
      "outdoor",
      "seating",
      "weather",
      "permits"
    ],
    "attractions": {
      "Ringsted Touristinformation": null,
      "Church of Saint Benedict": {
        "type": "see",
        "description": [
          "church",
          "built",
          "12th",
          "century",
          "contains",
          "tomb",
          "among",
          "others",
          "queen",
          "dagmar"
        ],
        "coordinates": [
          55.44543,
          11.7871
        ],
        "website": "nan",
        "place_id": "ChIJFeaFO6UElwAROZ0YE-Gdnmc",
        "reviews": null
      },
      "The Houses of Mahler": {
        "type": "see",
        "description": [
          "nan"
        ],
        "coordinates": [
          55.445890000000006,
          11.78637
        ],
        "website": "nan",
        "place_id": null,
        "reviews": null
      },
      "The Old Mail House": {
        "type": "see",
        "description": [
          "oldest",
          "secular",
          "building",
          "town",
          "built",
          "1806",
          "originally",
          "merchant",
          "house",
          "1826",
          "started",
          "used",
          "mail",
          "house",
          "serving",
          "people",
          "traveling",
          "day",
          "coach",
          "later",
          "hotel",
          "restaurant",
          "builiding",
          "houses",
          "administration",
          "bank"
        ],
        "coordinates": [
          55.4461,
          11.78946
        ],
        "website": "nan",
        "place_id": null,
        "reviews": null
      },
      "Ringsted Exchange": {
        "type": "see",
        "description": [
          "nan"
        ],
        "coordinates": [
          55.44781999999999,
          11.79852
        ],
        "website": "nan",
        "place_id": null,
        "reviews": null
      },
      "Ringsted Wind Mill": {
        "type": "see",
        "description": [
          "nan"
        ],
        "coordinates": [
          55.44781999999999,
          11.79852
        ],
        "website": "nan",
        "place_id": null,
        "reviews": null
      },
      "Sct. Bendts Kirke": {
        "type": "see",
        "description": [
          "nan"
        ],
        "coordinates": [
          55.44781999999999,
          11.79852
        ],
        "website": "http://www.sctbendts.kirke.dk/ {{dead link|May 2016}}",
        "place_id": null,
        "reviews": null
      },
      "The Court Stones": {
        "type": "see",
        "description": [
          "nan"
        ],
        "coordinates": [
          55.44781999999999,
          11.79852
        ],
        "website": "nan",
        "place_id": null,
        "reviews": null
      },
      "Crucifix for Knud Lavard": {
        "type": "see",
        "description": [
          "nan"
        ],
        "coordinates": [
          55.44781999999999,
          11.79852
        ],
        "website": "nan",
        "place_id": null,
        "reviews": null
      },
      "Dronning Dagmars mindebr\u00f8nd": {
        "type": "see",
        "description": [
          "nan"
        ],
        "coordinates": [
          55.44781999999999,
          11.79852
        ],
        "website": "nan",
        "place_id": null,
        "reviews": null
      },
      "G\u00f8rrildsborg": {
        "type": "see",
        "description": [
          "nan"
        ],
        "coordinates": [
          55.44781999999999,
          11.79852
        ],
        "website": "nan",
        "place_id": null,
        "reviews": null
      },
      "Ridebanen": {
        "type": "see",
        "description": [
          "nan"
        ],
        "coordinates": [
          55.44781999999999,
          11.79852
        ],
        "website": "nan",
        "place_id": null,
        "reviews": null
      },
      "The ruins of Knud Lavards chapel": {
        "type": "see",
        "description": [
          "nan"
        ],
        "coordinates": [
          55.44781999999999,
          11.79852
        ],
        "website": "nan",
        "place_id": null,
        "reviews": null
      },
      "Giesgaard Woods": {
        "type": "see",
        "description": [
          "nan"
        ],
        "coordinates": [
          55.44781999999999,
          11.79852
        ],
        "website": "http://www.giesegaard.dk/dk/ {{dead link|May 2016}}",
        "place_id": null,
        "reviews": null
      },
      "Gyldenl\u00f8ves Hill": {
        "type": "see",
        "description": [
          "nan"
        ],
        "coordinates": [
          55.44781999999999,
          11.79852
        ],
        "website": "nan",
        "place_id": null,
        "reviews": null
      },
      "Humlebjerget": {
        "type": "see",
        "description": [
          "nan"
        ],
        "coordinates": [
          55.44781999999999,
          11.79852
        ],
        "website": "nan",
        "place_id": null,
        "reviews": null
      },
      "Humleore": {
        "type": "see",
        "description": [
          "nan"
        ],
        "coordinates": [
          55.44781999999999,
          11.79852
        ],
        "website": "nan",
        "place_id": null,
        "reviews": null
      },
      "Klosterlunden": {
        "type": "see",
        "description": [
          "nan"
        ],
        "coordinates": [
          55.44781999999999,
          11.79852
        ],
        "website": "nan",
        "place_id": null,
        "reviews": null
      },
      "Kv\u00e6rkeby Experimentelle Fuglereservat": {
        "type": "see",
        "description": [
          "nan"
        ],
        "coordinates": [
          55.44781999999999,
          11.79852
        ],
        "website": "nan",
        "place_id": null,
        "reviews": null
      },
      "Lystanl\u00e6gget": {
        "type": "see",
        "description": [
          "nan"
        ],
        "coordinates": [
          55.44781999999999,
          11.79852
        ],
        "website": "nan",
        "place_id": null,
        "reviews": null
      },
      "nan": {
        "type": "see",
        "description": [
          "nan"
        ],
        "coordinates": [
          55.446819999999995,
          11.79752
        ],
        "website": "nan",
        "place_id": null,
        "reviews": null
      },
      "Bedstedhave": {
        "type": "see",
        "description": [
          "nan"
        ],
        "coordinates": [
          55.44781999999999,
          11.79852
        ],
        "website": "http://www.bedstedhave.dk/",
        "place_id": null,
        "reviews": null
      },
      "Beo Beo": {
        "type": "see",
        "description": [
          "nan"
        ],
        "coordinates": [
          55.44781999999999,
          11.79852
        ],
        "website": "http://www.beobeo.dk/",
        "place_id": null,
        "reviews": null
      },
      "Galleri Frem": {
        "type": "see",
        "description": [
          "nan"
        ],
        "coordinates": [
          55.44781999999999,
          11.79852
        ],
        "website": "http://www.gallerifrem.dk/",
        "place_id": null,
        "reviews": null
      },
      "The House of History": {
        "type": "see",
        "description": [
          "nan"
        ],
        "coordinates": [
          55.44781999999999,
          11.79852
        ],
        "website": "http://www.historienshus.ringsted.dk/",
        "place_id": null,
        "reviews": null
      },
      "Ringsted Galleriet": {
        "type": "see",
        "description": [
          "nan"
        ],
        "coordinates": [
          55.44781999999999,
          11.79852
        ],
        "website": "http://www.rigall.dk/",
        "place_id": null,
        "reviews": null
      },
      "Ringsted Radiomuseum": {
        "type": "see",
        "description": [
          "nan"
        ],
        "coordinates": [
          55.44781999999999,
          11.79852
        ],
        "website": "http://www.rfr.dk/",
        "place_id": null,
        "reviews": null
      },
      "Sporvejsmuseet Skjolden\u00e6sholm": {
        "type": "see",
        "description": [
          "nan"
        ],
        "coordinates": [
          55.44781999999999,
          11.79852
        ],
        "website": "http://www.sporvejsmuseet.dk/",
        "place_id": null,
        "reviews": null
      },
      "Engagergaard": {
        "type": "see",
        "description": [
          "nan"
        ],
        "coordinates": [
          55.44781999999999,
          11.79852
        ],
        "website": "http://www.engagergaard.dk/",
        "place_id": null,
        "reviews": null
      },
      "The Night Watchmen": {
        "type": "see",
        "description": [
          "nan"
        ],
        "coordinates": [
          55.44781999999999,
          11.79852
        ],
        "website": "nan",
        "place_id": null,
        "reviews": null
      },
      "Ringsted Kongrescenter": {
        "type": "do",
        "description": [
          "nan"
        ],
        "coordinates": [
          55.44781999999999,
          11.79852
        ],
        "website": "http://www.ringstedkongrescenter.dk/",
        "place_id": null,
        "reviews": null
      },
      "Kino Ringsted": {
        "type": "do",
        "description": [
          "small",
          "cinema"
        ],
        "coordinates": [
          55.44781999999999,
          11.79852
        ],
        "website": "http://www.kino-ringsted.dk/",
        "place_id": null,
        "reviews": null
      },
      "Mosehusets K\u00f8bmandsg\u00e5rd": {
        "type": "buy",
        "description": [
          "nan"
        ],
        "coordinates": [
          55.44781999999999,
          11.79852
        ],
        "website": "http://mosehuset.dk/menu.asp",
        "place_id": null,
        "reviews": null
      },
      "Deep Pan House": {
        "type": "eat",
        "description": [
          "fast",
          "food",
          "restaurant",
          "serving",
          "deep",
          "pan",
          "pizzas",
          "well",
          "italian",
          "mexican",
          "dishes"
        ],
        "coordinates": [
          55.44291,
          11.80033
        ],
        "website": "nan",
        "place_id": null,
        "reviews": null
      },
      "El Castillo's Cantina": {
        "type": "eat",
        "description": [
          "mexican",
          "restaurant"
        ],
        "coordinates": [
          55.439080000000004,
          11.78616
        ],
        "website": "nan",
        "place_id": null,
        "reviews": null
      },
      "Firezza": {
        "type": "eat",
        "description": [
          "italian",
          "restaurant",
          "also",
          "serving",
          "pastas",
          "meat",
          "dishes",
          "pizzas",
          "made",
          "stone",
          "oven",
          "interior",
          "stylish",
          "distinguish",
          "place",
          "ordinary",
          "pizzeria"
        ],
        "coordinates": [
          55.44781999999999,
          11.79852
        ],
        "website": "http://www.firezza.dk/ {{dead link|May 2016}}",
        "place_id": "ChIJhxlfsIkPdkgRWH9WHRRAZxA",
        "reviews": null
      },
      "Hua Yang": {
        "type": "eat",
        "description": [
          "nan"
        ],
        "coordinates": [
          55.44295,
          11.799000000000001
        ],
        "website": "http://www.huayang.dk/?Velkommen",
        "place_id": null,
        "reviews": null
      },
      "Benl\u00f8se Kro": {
        "type": "eat",
        "description": [
          "old",
          "inn",
          "serving",
          "typical",
          "danish",
          "cuisine",
          "large",
          "portions",
          "sophisticated",
          "friendly",
          "service",
          "bit",
          "slow"
        ],
        "coordinates": [
          55.4583,
          11.794260000000001
        ],
        "website": "http://www.benloese-kro.dk/",
        "place_id": null,
        "reviews": null
      },
      "Chr. VI Overdrevskro": {
        "type": "eat",
        "description": [
          "old",
          "inn",
          "dating",
          "back",
          "around",
          "1700",
          "even",
          "though",
          "present",
          "buildings",
          "somewhat",
          "newer",
          "serves",
          "traditional",
          "danish",
          "cuisine"
        ],
        "coordinates": [
          55.50108,
          11.87941
        ],
        "website": "http://www.overdrevskro.dk/",
        "place_id": null,
        "reviews": null
      },
      "Ferdinands B\u00f8fhus": {
        "type": "eat",
        "description": [
          "restaurant",
          "specialising",
          "steaks",
          "lot",
          "different",
          "dishes",
          "choose",
          "restaurants",
          "brands",
          "fusion",
          "crossover",
          "difficult",
          "see",
          "steaks",
          "great",
          "wine",
          "list",
          "limited",
          "possible",
          "wine",
          "matches",
          "steaks"
        ],
        "coordinates": [
          55.451530000000005,
          11.78946
        ],
        "website": "http://www.ferdinands.dk/index.html {{dead link|May 2016}}",
        "place_id": null,
        "reviews": null
      },
      "Italy & Italy": {
        "type": "eat",
        "description": [
          "great",
          "italian",
          "restaurant",
          "simple",
          "classy",
          "interior",
          "pastas",
          "good",
          "go",
          "looking",
          "steak",
          "wine",
          "list",
          "long",
          "italian",
          "lacking",
          "really",
          "top",
          "end",
          "wines"
        ],
        "coordinates": [
          55.4449,
          11.78801
        ],
        "website": "http://www.italy-italy.dk/",
        "place_id": null,
        "reviews": null
      },
      "Kokken & Tyren": {
        "type": "eat",
        "description": [
          "danish",
          "french",
          "cuisine",
          "many",
          "ecological",
          "ingredients",
          "decent",
          "wine",
          "list",
          "rustic",
          "interior",
          "nice",
          "patio"
        ],
        "coordinates": [
          55.44863,
          11.78917
        ],
        "website": "http://www.kokkenogtyren.dk/",
        "place_id": null,
        "reviews": null
      },
      "Lins Restaurant": {
        "type": "eat",
        "description": [
          "typical",
          "chinese",
          "restaurant",
          "actually",
          "cheap"
        ],
        "coordinates": [
          55.44263,
          11.793569999999999
        ],
        "website": "http://www.lins-r.dk/?pid=1 {{dead link|May 2016}}",
        "place_id": null,
        "reviews": null
      },
      "Kudskehuset": {
        "type": "eat",
        "description": [
          "restaurant",
          "serving",
          "danish",
          "cuisine",
          "historical",
          "building",
          "close",
          "skjoldensholm"
        ],
        "coordinates": [
          55.543169999999996,
          11.85208
        ],
        "website": "http://www.kudske-huset.dk/",
        "place_id": null,
        "reviews": null
      },
      "Oishii": {
        "type": "eat",
        "description": [
          "japanese",
          "restaurant",
          "serving",
          "sushi",
          "typical",
          "japanese",
          "dishes"
        ],
        "coordinates": [
          55.443709999999996,
          11.7899
        ],
        "website": "http://www.oishii.dk/om-oishii-sushi-restaurant {{dead link|May 2016}}",
        "place_id": null,
        "reviews": null
      },
      "R\u00e5dhuskroen": {
        "type": "eat",
        "description": [
          "restaurant",
          "historical",
          "building",
          "serving",
          "classical",
          "danish",
          "cuisine",
          "especially",
          "open",
          "sandwiches",
          "lunch",
          "great"
        ],
        "coordinates": [
          55.44631,
          11.78595
        ],
        "website": "http://www.raadhuskroen.dk/index.cfm",
        "place_id": null,
        "reviews": null
      },
      "Baghuset": {
        "type": "drink",
        "description": [
          "bar",
          "dance",
          "weekends",
          "live",
          "music"
        ],
        "coordinates": [
          55.44781999999999,
          11.79852
        ],
        "website": "http://www.baghuset-4100.dk/ {{dead link|May 2016}}",
        "place_id": null,
        "reviews": null
      },
      "Crazy Daisy": {
        "type": "drink",
        "description": [
          "nan"
        ],
        "coordinates": [
          55.44781999999999,
          11.79852
        ],
        "website": "http://www.ringsted.crazydaisy.dk/default.aspx",
        "place_id": null,
        "reviews": null
      },
      "Wengel": {
        "type": "drink",
        "description": [
          "pub",
          "live",
          "music"
        ],
        "coordinates": [
          55.44692,
          11.78927
        ],
        "website": "nan",
        "place_id": null,
        "reviews": null
      },
      "Caf\u00e9 Aspendos": {
        "type": "drink",
        "description": [
          "cafe",
          "serving",
          "drinks",
          "light",
          "meals"
        ],
        "coordinates": [
          55.44246999999999,
          11.790560000000001
        ],
        "website": "nan",
        "place_id": null,
        "reviews": null
      },
      "Caf\u00e9 Slabberas": {
        "type": "drink",
        "description": [
          "cafe",
          "serving",
          "drinks",
          "light",
          "meals",
          "outdoor",
          "seating",
          "weather",
          "permits"
        ],
        "coordinates": [
          55.44781999999999,
          11.79852
        ],
        "website": "nan",
        "place_id": null,
        "reviews": null
      },
      "Cafe Valdemar": {
        "type": "drink",
        "description": [
          "cafe",
          "serving",
          "drinks",
          "light",
          "meals",
          "outdoor",
          "seating",
          "weather",
          "permits"
        ],
        "coordinates": [
          55.4452,
          11.78943
        ],
        "website": "nan",
        "place_id": null,
        "reviews": null
      },
      "Caf\u00e9 Vivaldi": {
        "type": "drink",
        "description": [
          "nan"
        ],
        "coordinates": [
          55.44781999999999,
          11.79852
        ],
        "website": "http://www.cafevivaldi.dk/",
        "place_id": null,
        "reviews": null
      },
      "Annegaarden Bed & Breakfast": {
        "type": "sleep",
        "description": [
          "nan"
        ],
        "coordinates": [
          55.44781999999999,
          11.79852
        ],
        "website": "http://www.annegaarden.dk/",
        "place_id": null,
        "reviews": null
      },
      "Annettes Bed & Breakfast": {
        "type": "sleep",
        "description": [
          "nan"
        ],
        "coordinates": [
          55.44781999999999,
          11.79852
        ],
        "website": "http://www.annettes-bedandbreakfast.dk/ {{dead link|May 2016}}",
        "place_id": null,
        "reviews": null
      },
      "Beo Beo B&B": {
        "type": "sleep",
        "description": [
          "nan"
        ],
        "coordinates": [
          55.44781999999999,
          11.79852
        ],
        "website": "http://www.beobeo.dk/",
        "place_id": null,
        "reviews": null
      },
      "Danhostel": {
        "type": "sleep",
        "description": [
          "nan"
        ],
        "coordinates": [
          55.44631,
          11.78595
        ],
        "website": "http://www.danhostel.dk/",
        "place_id": "ChIJXcxtW5E_TEYRb7_WA-xWMUQ",
        "reviews": null
      },
      "Gyrstinge Village Hostel": {
        "type": "sleep",
        "description": [
          "nan"
        ],
        "coordinates": [
          55.44781999999999,
          11.79852
        ],
        "website": "http://www.landsbyhuset-gyrstinge.dk/",
        "place_id": null,
        "reviews": null
      },
      "Skovly Camping": {
        "type": "sleep",
        "description": [
          "nan"
        ],
        "coordinates": [
          55.44781999999999,
          11.79852
        ],
        "website": "http://www.skovlycamping.dk/",
        "place_id": null,
        "reviews": null
      },
      "Hotel S\u00f8rup Herregaard": {
        "type": "sleep",
        "description": [
          "nan"
        ],
        "coordinates": [
          55.44781999999999,
          11.79852
        ],
        "website": "http://www.sorup.dk/",
        "place_id": null,
        "reviews": null
      },
      "Merl\u00f8segaard Manor": {
        "type": "sleep",
        "description": [
          "nan"
        ],
        "coordinates": [
          55.44781999999999,
          11.79852
        ],
        "website": "http://www.merloesegaard.dk/",
        "place_id": null,
        "reviews": null
      },
      "Scandic Ringsted": {
        "type": "sleep",
        "description": [
          "nan"
        ],
        "coordinates": [
          55.44781999999999,
          11.79852
        ],
        "website": "http://www.scandichotels.dk/ringsted",
        "place_id": null,
        "reviews": null
      },
      "Skjolden\u00e6sholm Hotel and ConferenceCenter": {
        "type": "sleep",
        "description": [
          "nan"
        ],
        "coordinates": [
          55.44781999999999,
          11.79852
        ],
        "website": "http://www.skj.dk/",
        "place_id": null,
        "reviews": null
      }
    }
  }
}